City_ID,City,Lat,Lng,Max Temp,Humidity,Cloudiness,Wind Speed,Country,Date
0,severo-kurilsk,50.6789,156.125,31.24,85,86,33.08,RU,1681190166
1,terra santa,-2.1042,-56.4869,74.14,98,100,2.53,BR,1681190722
2,san severo,41.6897,15.376,42.4,82,13,3.15,IT,1681190490
3,dikson,73.5069,80.5464,-6.72,94,93,12.8,RU,1681190723
4,mar del plata,-38.0023,-57.5575,66.09,86,100,20.0,AR,1681189843
5,vaini,-21.2,-175.2,82.56,78,20,11.5,TO,1681190123
6,busselton,-33.65,115.3333,68.85,63,96,13.29,AU,1681190723
7,qaanaaq,77.484,-69.3632,-13.22,73,0,6.24,GL,1681190723
8,kerouane,9.2667,-9.0167,72.81,83,95,2.86,GN,1681190724
9,san patricio,28.017,-97.5169,69.84,93,25,4.43,US,1681190724
10,rikitea,-23.1203,-134.9692,76.84,69,95,9.04,PF,1681190592
11,katsuura,35.1333,140.3,68.02,67,0,22.7,JP,1681190724
12,port alfred,-33.5906,26.891,58.17,66,76,8.01,ZA,1681190724
13,asyut,27.181,31.1837,62.26,61,95,12.17,EG,1681190724
14,karatau,43.1667,70.4667,58.71,51,78,14.18,KZ,1681190725
15,tuatapere,-46.1333,167.6833,55.54,96,100,5.19,NZ,1681190725
16,punta arenas,-53.15,-70.9167,41.61,73,58,19.77,CL,1681190646
17,lagoa,39.05,-27.9833,59.92,89,100,23.4,PT,1681190173
18,sao filipe,14.8961,-24.4956,71.13,62,81,3.4,CV,1681190150
19,nelson bay,-32.7167,152.15,71.1,57,0,11.01,AU,1681190726
20,lebu,-37.6167,-73.65,58.82,99,72,5.41,CL,1681190141
21,kruisfontein,-34.0033,24.7314,55.89,75,36,16.37,ZA,1681190208
22,atuona,-9.8,-139.0333,80.74,79,89,13.13,PF,1681190726
23,souillac,-20.5167,57.5167,79.47,76,99,10.49,MU,1681190130
24,albany,42.6001,-73.9662,48.79,54,27,3.0,US,1681190453
25,ushuaia,-54.8,-68.3,40.66,87,75,32.21,AR,1681190727
26,muravlenko,63.7898,74.523,0.55,79,90,12.37,RU,1681190727
27,new norfolk,-42.7826,147.0587,61.92,63,99,1.99,AU,1681190174
28,butaritari,3.0707,172.7902,80.85,81,90,10.65,KI,1681190728
29,thompson,55.7435,-97.8558,35.83,87,19,11.16,CA,1681190114
30,kandrian,-6.2167,149.55,82.09,74,99,4.29,PG,1681190728
31,mataura,-46.1927,168.8643,52.48,97,100,3.09,NZ,1681190128
32,tuktoyaktuk,69.4541,-133.0374,12.33,95,100,13.09,CA,1681190140
33,shancheng,34.7953,116.0817,73.29,19,89,14.74,CN,1681190728
34,hermanus,-34.4187,19.2345,52.81,68,64,1.03,ZA,1681190729
35,danilov,58.1908,40.1717,41.88,68,23,1.88,RU,1681190729
36,bathsheba,13.2167,-59.5167,79.41,69,40,18.41,BB,1681190190
37,broken hill,-31.95,141.4333,75.51,29,68,9.24,AU,1681190145
38,nikolskoye,59.7035,30.7861,40.8,82,99,1.01,RU,1681190143
39,iqaluit,63.7506,-68.5145,4.73,85,75,0.0,CA,1681190152
40,bengkulu,-3.8004,102.2655,84.24,67,53,6.64,ID,1681190730
41,puerto ayora,-0.7393,-90.3518,79.56,91,59,1.16,EC,1681190730
42,ancud,-41.8697,-73.8203,56.53,98,100,7.96,CL,1681190203
43,hilo,19.7297,-155.09,72.28,92,75,6.91,US,1681190731
44,kuytun,54.3419,101.5036,37.99,50,80,11.81,RU,1681190731
45,kefamenanu,-9.4467,124.4781,83.16,68,47,9.04,ID,1681190732
46,ilulissat,69.2167,-51.1,41.02,38,13,24.16,GL,1681190066
47,yellowknife,62.456,-114.3525,25.32,80,100,14.97,CA,1681190152
48,cheremukhovo,60.3484,59.9851,30.25,60,100,7.11,RU,1681190732
49,ponta do sol,32.6667,-17.1,65.03,46,7,4.47,PT,1681190732
50,jamestown,42.097,-79.2353,49.59,60,0,4.61,US,1681190733
51,cacapava,-23.1008,-45.7069,61.5,93,77,1.19,BR,1681190733
52,airai,-8.9266,125.4092,69.4,83,55,3.67,TL,1681190162
53,port lincoln,-34.7333,135.8667,64.8,85,100,16.15,AU,1681190164
54,matara,5.9485,80.5353,88.97,53,12,10.2,LK,1681190733
55,kavieng,-2.5744,150.7967,82.08,75,97,8.34,PG,1681190135
56,cidreira,-30.1811,-50.2056,71.91,87,14,10.13,BR,1681190733
57,tevriz,57.509,72.4042,23.43,52,61,11.88,RU,1681190734
58,jinchang,38.4953,102.1739,55.4,20,18,6.64,CN,1681190734
59,hobart,-42.8794,147.3294,63.27,82,75,9.22,AU,1681190037
60,nome,64.5011,-165.4064,-5.73,65,0,0.0,US,1681190203
61,provideniya,64.3833,-173.3,-3.64,59,0,13.42,RU,1681190187
62,port hardy,50.6996,-127.4199,42.8,93,100,5.75,CA,1681190735
63,avarua,-21.2078,-159.775,77.05,69,20,3.44,CK,1681189975
64,leningradskiy,69.3833,178.4167,-3.78,93,34,5.61,RU,1681190177
65,kapaa,22.0752,-159.319,78.78,82,75,19.57,US,1681190735
66,sur,22.5667,59.5289,84.4,51,52,3.98,OM,1681190736
67,saint-joseph,-21.3667,55.6167,81.46,74,100,3.71,RE,1681190736
68,hami,42.8,93.45,63.32,13,67,1.21,CN,1681190171
69,faanui,-16.4833,-151.75,81.91,74,100,10.18,PF,1681190155
70,vallenar,-28.5708,-70.7581,66.92,63,5,0.76,CL,1681190736
71,naron,43.5167,-8.1528,51.04,94,100,3.89,ES,1681190736
72,coatesville,39.9832,-75.8238,49.98,61,0,4.61,US,1681190737
73,hasaki,35.7333,140.8333,75.6,64,0,26.08,JP,1681190737
74,gunjur,13.2019,-16.7339,69.87,88,0,6.91,GM,1681190737
75,mount isa,-20.7333,139.5,92.97,15,25,6.91,AU,1681190737
76,cape town,-33.9258,18.4232,61.38,76,75,3.44,ZA,1681190624
77,tiarei,-17.5333,-149.3333,82.42,78,96,10.71,PF,1681190592
78,tecoanapa,16.5167,-98.75,80.56,79,8,5.53,MX,1681190157
79,san cristobal,7.7669,-72.225,73.58,95,79,3.0,VE,1681190161
80,carnarvon,-24.8667,113.6333,75.25,45,12,19.42,AU,1681190140
81,georgetown,5.4112,100.3354,91.33,66,20,10.36,MY,1681190717
82,birin,26.8865,88.0718,76.15,20,0,7.49,NP,1681190738
83,poindimie,-20.9333,165.3333,82.85,70,15,5.68,NC,1681190738
84,vila franca do campo,37.7167,-25.4333,61.21,93,36,8.39,PT,1681190185
85,khatanga,71.9667,102.5,1.22,78,100,10.87,RU,1681190149
86,kysyl-syr,63.8986,122.7617,16.05,87,100,5.21,RU,1681190739
87,kodiak,57.79,-152.4072,33.31,51,0,6.91,US,1681190739
88,bubaque,11.2833,-15.8333,76.1,70,76,11.68,GW,1681190739
89,guerrero negro,27.9769,-114.0611,58.26,88,0,12.8,MX,1681190739
90,talnakh,69.4865,88.3972,0.07,84,100,6.73,RU,1681190141
91,axim,4.8699,-2.2405,79.39,84,100,4.83,GH,1681190740
92,corowa,-36.0333,146.3833,69.58,51,34,3.69,AU,1681190740
93,upernavik,72.7868,-56.1549,-1.55,97,99,14.03,GL,1681190740
94,lixourion,38.2019,20.4314,52.2,76,22,7.14,GR,1681190740
95,east london,-33.0153,27.9116,58.14,54,0,12.66,ZA,1681190741
96,tiksi,71.6872,128.8694,-1.25,92,38,4.12,RU,1681190172
97,barrow,71.2906,-156.7887,-0.38,71,100,11.5,US,1681190720
98,saint-augustin,51.226,-58.6502,32.92,90,87,14.5,CA,1681190741
99,bilokurakyne,49.5341,38.7307,49.68,57,100,12.35,UA,1681190741
100,cabo san lucas,22.8909,-109.9124,74.52,46,36,11.41,MX,1681190168
101,deori khas,23.4,79.0167,95.74,11,1,1.72,IN,1681190742
102,bluff,-46.6,168.3333,52.81,95,100,16.6,NZ,1681190742
103,placerville,38.7296,-120.7986,61.14,78,40,5.75,US,1681190742
104,simpang,-1.2667,104.0833,88.63,61,93,4.36,ID,1681190742
105,sitka,57.0531,-135.33,39.09,75,100,3.44,US,1681190742
106,micheweni,-4.9667,39.8333,81.28,80,66,2.57,TZ,1681190743
107,klaksvik,62.2266,-6.589,43.72,82,100,8.19,FO,1681190743
108,kieta,-6.2167,155.6333,82.87,81,100,5.73,PG,1681190198
109,ramet,46.3,23.5333,41.13,89,51,1.01,RO,1681190743
110,cayenne,4.9333,-52.3333,75.24,94,75,5.75,GF,1681190185
111,jaru,-10.4389,-62.4664,72.07,98,99,1.1,BR,1681190743
112,bosaso,11.2842,49.1816,84.18,65,0,19.57,SO,1681190744
113,ahipara,-35.1667,173.1667,65.77,89,15,17.85,NZ,1681190166
114,krasnoselkup,65.7,82.4667,-2.31,88,62,15.14,RU,1681190744
115,bredasdorp,-34.5322,20.0403,55.44,77,63,4.56,ZA,1681190145
116,charters towers,-20.1,146.2667,90.75,19,9,6.82,AU,1681190745
117,longyearbyen,78.2186,15.6401,24.64,80,75,16.11,SJ,1681190745
118,pemba,-12.974,40.5178,79.5,94,20,3.44,MZ,1681190745
119,henties bay,-22.116,14.2845,55.83,86,0,4.0,NA,1681190746
120,dingle,10.9995,122.6711,77.88,81,100,3.94,PH,1681190190
121,nuuk,64.1835,-51.7216,32.61,86,7,10.36,GL,1681190746
122,wana,32.2989,69.5725,72.14,31,3,4.18,PK,1681190746
123,araouane,18.9048,-3.5265,77.97,14,99,12.66,ML,1681190471
124,victoria,22.2855,114.1577,83.19,85,98,8.99,HK,1681190703
125,darnah,32.767,22.6367,55.81,72,52,14.03,LY,1681190747
126,aklavik,68.2191,-135.0107,7.95,96,100,5.41,CA,1681190747
127,pacific grove,36.6177,-121.9166,54.39,90,100,3.44,US,1681190747
128,antalaha,-14.9003,50.2788,77.61,82,18,3.74,MG,1681190748
129,marienburg,54.0359,19.0266,49.57,88,87,9.17,PL,1681190748
130,petauke,-14.2426,31.3253,65.84,96,33,2.51,ZM,1681190748
131,simga,21.6333,81.7,98.33,14,2,4.97,IN,1681190748
132,hithadhoo,-0.6,73.0833,82.69,66,4,1.83,MV,1681190748
133,gazli,40.1333,63.45,66.51,35,91,6.55,UZ,1681190749
134,tasiilaq,65.6145,-37.6368,33.96,98,100,6.42,GL,1681190618
135,meulaboh,4.1363,96.1285,85.37,65,96,3.98,ID,1681190199
136,kpandu,6.9954,0.2931,77.61,84,100,7.23,GH,1681190749
137,alta floresta,-9.8756,-56.0861,70.86,97,99,2.95,BR,1681190198
138,manta,-0.95,-80.7333,76.78,88,75,2.3,EC,1681190187
139,mahina,-17.5065,-149.489,82.17,74,75,3.44,PF,1681190749
140,namibe,-15.1961,12.1522,72.45,80,3,3.04,AO,1681190750
141,esil,51.9556,66.4042,40.15,58,36,12.08,KZ,1681190750
142,kirakira,-10.4544,161.9205,81.36,81,84,1.61,SB,1681190204
143,kahului,20.8947,-156.47,74.84,77,40,11.5,US,1681190157
144,chokurdakh,70.6333,147.9167,2.55,83,87,4.76,RU,1681190750
145,ostrovnoy,68.0531,39.5131,34.25,98,100,14.27,RU,1681190750
146,tarauaca,-8.1614,-70.7656,71.31,98,87,0.27,BR,1681190751
147,lata,40.1629,-8.3327,51.08,98,70,2.21,PT,1681190751
148,iztapa,13.9333,-90.7075,80.04,65,68,3.71,GT,1681190751
149,port elizabeth,-33.918,25.5701,60.31,67,0,18.41,ZA,1681190751
150,romny,50.751,33.4747,46.92,60,90,11.05,UA,1681190751
151,saint-philippe,-21.3585,55.7679,78.39,73,100,7.29,RE,1681190752
152,saskylakh,71.9167,114.0833,3.97,85,100,14.56,RU,1681190752
153,calvinia,-31.4707,19.776,46.2,63,8,4.25,ZA,1681190752
154,balaipungut,1.05,101.2833,93.61,49,89,1.1,ID,1681190752
155,tautira,-17.7333,-149.15,80.19,78,99,9.46,PF,1681190752
156,kenora,49.8167,-94.4337,38.37,75,75,9.22,CA,1681190169
157,ganta,7.3022,-8.5308,70.38,98,99,2.33,LR,1681190752
158,sioux lookout,50.1001,-91.917,44.67,57,0,6.91,CA,1681190753
159,helong,42.5397,128.9972,54.7,45,51,16.87,CN,1681190753
160,totness,5.8833,-56.3167,77.02,90,42,8.75,SR,1681190717
161,constitucion,-35.3333,-72.4167,58.53,95,95,5.06,CL,1681190191
162,gambela,8.25,34.5833,81.18,50,78,4.68,ET,1681190753
163,chuy,-33.6971,-53.4616,64.15,88,28,6.46,UY,1681190753
164,flinders,-34.5833,150.8552,72.18,53,13,8.01,AU,1681190192
165,komsomolskiy,40.4272,71.7189,63.32,59,75,2.3,UZ,1681190162
166,ippy,6.2679,21.2247,72.99,90,100,4.41,CF,1681190754
167,shache,38.4167,77.2406,68.63,17,26,4.25,CN,1681190754
168,vila velha,-20.3297,-40.2925,71.55,96,100,6.91,BR,1681189977
169,santa luzia,-19.7697,-43.8514,67.1,77,0,0.0,BR,1681190754
170,cap malheureux,-19.9842,57.6142,80.47,78,100,1.01,MU,1681190754
171,lompoc,34.6391,-120.4579,55.02,95,100,5.75,US,1681190197
172,shitanjing,39.2342,106.3439,52.18,9,2,0.56,CN,1681190755
173,mount gambier,-37.8333,140.7667,67.28,43,100,7.2,AU,1681190189
174,kaitangata,-46.2817,169.8464,56.44,90,62,5.77,NZ,1681190755
175,westport,41.1415,-73.3579,49.93,71,0,0.0,US,1681190755
176,mahebourg,-20.4081,57.7,80.26,89,75,5.75,MU,1681190756
177,lincoln,40.8,-96.667,60.13,81,0,3.44,US,1681190625
178,paamiut,61.994,-49.6678,32.31,77,97,6.71,GL,1681190162
179,marawi,7.9986,124.2928,79.68,65,97,5.79,PH,1681190756
180,labuhan,-6.8844,112.2051,85.57,68,68,9.33,ID,1681190164
181,northam,51.0333,-4.2167,47.25,90,90,13.44,GB,1681190757
182,ust-kuyga,70.0167,135.6,10.44,57,0,1.59,RU,1681190201
183,noumea,-22.2763,166.4572,82.38,77,76,3.96,NC,1681190657
184,pinawa,50.1489,-95.8811,38.39,99,100,5.41,CA,1681190757
185,tura,25.5198,90.2201,92.32,16,1,5.39,IN,1681190757
186,anadyr,64.75,177.4833,1.9,66,40,11.18,RU,1681190758
187,biltine,14.5333,20.9167,81.91,15,37,8.57,TD,1681190758
188,takoradi,4.8845,-1.7554,79.61,85,100,5.91,GH,1681190758
189,sakakah,29.9697,40.2064,71.17,61,42,9.64,SA,1681190758
190,shubarshi,48.5872,57.1869,53.78,58,4,9.15,KZ,1681190759
191,brae,60.3964,-1.353,44.17,87,100,11.36,GB,1681190759
192,bambous virieux,-20.3428,57.7575,80.22,89,75,5.75,MU,1681190759
193,beringovskiy,63.05,179.3167,7.38,86,100,23.0,RU,1681190759
194,torbay,47.6666,-52.7314,35.28,76,0,20.71,CA,1681190760
195,saint simons,31.1352,-81.3901,66.24,65,100,14.97,US,1681190760
196,lahaina,20.8783,-156.6825,74.8,85,83,13.8,US,1681190760
197,udachnyy,66.4167,112.4,10.45,39,86,13.11,RU,1681190173
198,sisimiut,66.9395,-53.6735,23.77,75,14,8.48,GL,1681190761
199,riohacha,11.5444,-72.9072,77.77,88,42,4.23,CO,1681190761
200,nanortalik,60.1432,-45.2371,32.88,93,99,7.11,GL,1681190761
201,calderitas,18.55,-88.25,75.99,78,18,5.95,MX,1681190761
202,mahon,39.8885,4.2658,50.56,100,100,4.61,ES,1681190761
203,makakilo city,21.3469,-158.0858,75.52,75,0,13.8,US,1681190762
204,vao,-22.6667,167.4833,78.75,76,86,5.66,NC,1681190762
205,dunedin,-45.8742,170.5036,57.79,95,97,8.1,NZ,1681190762
206,campo verde,-20.4167,-54.0667,70.88,85,88,5.5,BR,1681190763
207,harwich,51.9419,1.2844,44.22,79,1,8.01,GB,1681190763
208,comodoro rivadavia,-45.8667,-67.5,46.26,76,0,4.61,AR,1681190089
209,kedrovyy,56.1667,91.8167,46.87,63,100,16.46,RU,1681190764
210,jieshi,22.8134,115.8257,74.95,77,52,5.86,CN,1681190764
211,plettenberg bay,-34.0527,23.3716,56.23,83,99,11.23,ZA,1681190764
212,pevek,69.7008,170.3133,-8.66,93,61,1.39,RU,1681190764
213,kudahuvadhoo,2.6708,72.8944,83.44,70,7,6.53,MV,1681190765
214,aswan,24.0934,32.907,74.34,41,65,20.18,EG,1681190765
215,komsomolets,53.7453,62.0708,40.15,56,53,6.82,KZ,1681190765
216,qunduz,36.729,68.857,74.19,31,6,2.55,AF,1681190766
217,shuangcheng,45.35,126.2833,47.88,26,87,22.91,CN,1681190766
218,sepuka,-4.75,34.5333,63.82,87,100,6.31,TZ,1681190766
219,saint anthony,45.0205,-93.218,56.82,55,0,3.44,US,1681190767
220,verkhnyaya toyma,62.2349,44.9985,34.09,89,74,5.17,RU,1681190767
221,poso,-1.3959,120.7524,87.53,63,34,5.91,ID,1681190767
222,grindavik,63.8424,-22.4338,39.67,93,75,9.22,IS,1681190767
223,harpalpur,25.2884,79.3347,95.25,8,7,4.88,IN,1681190768
224,lewisporte,49.2499,-55.0482,35.31,87,14,9.64,CA,1681190768
225,quelimane,-17.8786,36.8883,75.16,94,15,3.6,MZ,1681190594
226,hamilton,39.1834,-84.5333,54.84,54,20,0.0,US,1681189984
227,moura,38.1401,-7.4486,50.11,96,6,4.03,PT,1681190769
228,sibolga,1.7427,98.7792,86.45,65,87,5.66,ID,1681190769
229,cherskiy,68.75,161.3,8.17,83,8,6.64,RU,1681190769
230,binzhou,37.3667,118.0167,63.54,12,99,8.48,CN,1681190770
231,ribeira grande,38.5167,-28.7,61.77,94,100,13.0,PT,1681190770
232,abha,18.2164,42.5053,66.02,39,20,12.66,SA,1681190770
233,beroroha,-21.6667,45.1667,76.86,69,0,2.44,MG,1681190770
234,ixtapa,20.7,-105.2,74.23,78,0,4.61,MX,1681190187
235,paramonga,-10.6667,-77.8333,75.52,82,82,7.14,PE,1681190771
236,bela,25.9333,81.9833,97.5,8,1,10.67,IN,1681190771
237,nouakchott,18.0858,-15.9785,64.33,92,58,11.3,MR,1681190771
238,lavrentiya,65.5833,-171.0,-10.03,91,5,3.18,RU,1681190196
239,bonavista,48.6499,-53.1147,30.92,87,15,12.46,CA,1681190772
240,geraldton,-28.7667,114.6,75.61,46,40,11.5,AU,1681190772
241,yulara,-25.2406,130.9889,95.11,16,100,17.58,AU,1681190773
242,shenzhen,22.5455,114.0683,83.08,82,96,7.81,CN,1681190773
243,cuamba,-14.8031,36.5372,69.8,89,62,3.04,MZ,1681190773
244,port blair,11.6667,92.75,89.64,70,20,8.05,IN,1681190774
245,tirschenreuth,49.8825,12.3331,43.65,93,100,1.99,DE,1681190774
246,korla,41.7597,86.1469,65.08,18,75,7.38,CN,1681190197
247,san quintin,30.4833,-115.95,57.97,86,2,8.21,MX,1681190774
248,morondava,-20.2833,44.2833,77.99,80,1,4.72,MG,1681190775
249,tumut,-35.3,148.2167,64.67,48,26,3.22,AU,1681190775
250,zutphen,52.1383,6.2014,48.11,84,43,17.09,NL,1681190775
251,kenai,60.5544,-151.2583,27.09,76,100,0.0,US,1681190775
252,porto belo,-27.1578,-48.5531,73.17,79,63,8.68,BR,1681190775
253,assomada,15.1,-23.6833,63.95,66,90,9.4,CV,1681190776
254,valley,45.1277,-116.1262,41.61,78,65,10.22,US,1681190776
255,san jeronimo,-11.9472,-75.2829,47.8,86,75,3.58,PE,1681190777
256,bethel,41.3712,-73.414,47.66,67,0,0.0,US,1681190777
257,farafangana,-22.8167,47.8333,74.93,84,7,4.23,MG,1681190777
258,petropavlovsk-kamchatskiy,53.0452,158.6483,37.99,45,75,13.42,RU,1681190085
259,samarai,-10.6167,150.6667,78.85,83,100,6.49,PG,1681190778
260,nantucket,41.2835,-70.0995,46.45,83,0,16.11,US,1681190778
261,coquimbo,-29.9533,-71.3436,58.73,100,100,6.91,CL,1681189997
262,great falls,47.5002,-111.3008,63.79,36,0,19.57,US,1681190778
263,jishou,28.3167,109.7167,81.28,58,33,4.21,CN,1681190778
264,arraial do cabo,-22.9661,-42.0278,72.12,75,63,6.06,BR,1681190189
265,trincomalee,8.5711,81.2335,85.48,63,69,10.27,LK,1681190779
266,kavaratti,10.5669,72.642,83.84,67,77,3.94,IN,1681190779
267,jadu,31.953,12.0261,47.48,55,0,5.1,LY,1681190780
268,pizarro,4.9533,-77.366,77.47,91,96,5.61,CO,1681190780
269,rio gallegos,-51.6226,-69.2181,39.25,70,0,17.27,AR,1681190507
270,wagga wagga,-35.1167,147.3667,67.6,44,11,3.02,AU,1681190205
271,karratha,-20.7377,116.8463,92.57,24,82,4.63,AU,1681190205
272,mayo,38.8876,-76.5119,53.55,56,0,6.91,US,1681190781
273,gongzhuling,43.5008,124.8198,40.37,21,35,27.29,CN,1681190781
274,lasa,46.6166,10.7002,45.48,68,100,1.34,IT,1681190781
275,laguna,38.421,-121.4238,63.39,80,0,14.97,US,1681190782
276,castro,-24.7911,-50.0119,55.51,97,4,4.03,BR,1681190782
277,pochutla,15.7432,-96.4661,79.83,64,5,2.82,MX,1681190782
278,manavalakurichi,8.1333,77.3,90.25,55,48,7.14,IN,1681190782
279,waingapu,-9.6567,120.2641,84.33,76,94,14.45,ID,1681190194
280,saldanha,-33.0117,17.9442,44.65,79,39,8.28,ZA,1681190783
281,pangnirtung,66.1451,-65.7125,4.05,59,0,7.54,CA,1681190783
282,goderich,43.7501,-81.7165,46.9,77,87,12.03,CA,1681190107
283,sikasso,10.9167,-7.0,81.82,46,80,3.83,ML,1681190783
284,evensk,61.95,159.2333,24.64,57,100,22.35,RU,1681190784
285,nouadhibou,20.931,-17.0347,62.58,94,75,10.36,MR,1681190784
286,clarksburg,39.2807,-80.3445,49.3,60,0,0.0,US,1681190784
287,rawah,34.4816,41.9093,69.96,55,100,4.81,IQ,1681190785
288,pisco,-13.7,-76.2167,72.01,88,56,9.22,PE,1681190785
289,umm lajj,25.0213,37.2685,80.51,71,19,13.76,SA,1681190785
290,tepalcatepec,19.1833,-102.85,78.08,48,96,3.6,MX,1681190785
291,campbell river,50.0163,-125.2446,45.93,90,100,2.55,CA,1681190785
292,la romana,18.4273,-68.9728,73.02,92,0,6.17,DO,1681190786
293,gimbi,9.1667,35.8333,66.65,52,55,2.93,ET,1681190786
294,warrnambool,-38.3833,142.4833,63.34,62,100,4.99,AU,1681190786
295,villazon,-22.0866,-65.5942,47.7,73,99,6.76,BO,1681190787
296,chapais,49.7834,-74.8492,35.38,95,100,6.04,CA,1681190787
297,race,46.4519,15.6814,46.2,93,88,1.14,SI,1681190787
298,fresno,36.6666,-119.8343,73.63,56,0,9.22,US,1681190535
299,moron,-34.6534,-58.6198,69.55,90,34,6.73,AR,1681190788
300,putina,-15.4667,-69.4333,41.14,83,57,7.99,PE,1681190788
301,dehloran,32.6941,47.2679,80.76,22,68,11.99,IR,1681190788
302,leh,34.1667,77.5833,29.05,47,0,2.73,IN,1681190788
303,banfora,10.6333,-4.7667,81.97,51,81,3.85,BF,1681190789
304,los llanos de aridane,28.6585,-17.9182,65.95,35,0,12.66,ES,1681190789
305,deputatskiy,69.3,139.9,4.91,72,1,1.83,RU,1681190210
306,talcahuano,-36.7167,-73.1167,58.68,100,100,4.61,CL,1681190789
307,yamada,39.4667,141.95,65.95,44,100,10.85,JP,1681190790
308,palmer,42.1584,-72.3287,49.39,57,0,0.0,US,1681190790
309,puerto del rosario,28.5004,-13.8627,64.15,88,40,14.97,ES,1681190790
310,sao raimundo das mangabeiras,-7.0219,-45.4811,74.26,89,100,2.8,BR,1681190790
311,clonakilty,51.6231,-8.8706,42.01,85,99,14.38,IE,1681190791
312,huarmey,-10.0681,-78.1522,76.48,83,85,7.56,PE,1681190197
313,telemaco borba,-24.3239,-50.6156,58.57,98,33,1.63,BR,1681190791
314,cartagena,10.3997,-75.5144,80.22,83,40,9.22,CO,1681190204
315,waipawa,-41.4122,175.5153,60.28,68,80,7.54,NZ,1681190791
316,kidal,18.4411,1.4078,80.08,15,99,14.32,ML,1681190792
317,formosa do rio preto,-11.0483,-45.1931,69.28,92,36,1.05,BR,1681190792
318,naqadeh,36.9553,45.388,60.87,39,99,4.99,IR,1681190792
319,gidole,5.65,37.3667,63.36,60,99,2.26,ET,1681190792
320,oranjemund,-28.55,16.4333,55.15,76,60,9.62,NA,1681190792
321,moindou,-21.6924,165.677,80.82,73,45,4.61,NC,1681190792
322,manadhoo,5.7667,73.3833,84.06,71,27,11.86,MV,1681190793
323,huicheng,23.0385,116.2899,79.03,64,77,8.05,CN,1681190793
324,chapleau,47.8405,-83.4034,41.13,91,100,12.48,CA,1681190793
325,saint george,37.1041,-113.5841,68.59,31,0,3.44,US,1681190663
326,ulaangom,49.9811,92.0667,24.26,47,100,5.57,MN,1681190793
327,neiafu,-18.65,-173.9833,81.28,83,20,13.8,TO,1681190794
328,kualakapuas,-3.0091,114.3876,92.68,47,43,6.26,ID,1681190794
329,abu samrah,35.3029,37.1841,60.96,77,50,14.27,SY,1681190794
330,sabang,5.8933,95.3214,83.91,71,33,11.63,ID,1681190794
331,tutoia,-2.7619,-42.2744,75.04,91,100,4.0,BR,1681190794
332,angoche,-16.2325,39.9086,78.13,84,12,2.33,MZ,1681190795
333,qaqortoq,60.7167,-46.0333,33.06,72,100,6.31,GL,1681190795
334,sabha,27.0377,14.4283,54.77,27,42,3.67,LY,1681190795
335,belaya gora,68.5333,146.4167,8.92,72,100,4.83,RU,1681190795
336,buenavista,8.9769,125.4089,82.18,65,94,11.92,PH,1681190795
337,batagay,67.6333,134.6333,11.98,68,24,4.14,RU,1681190795
338,suoyarvi,62.0833,32.35,34.02,97,99,1.83,RU,1681190796
339,igarka,67.4667,86.5833,-2.52,89,68,10.69,RU,1681190796
340,vanatori-neamt,47.2,26.3167,46.98,85,100,6.89,RO,1681190796
341,kathmandu,27.7167,85.3167,79.02,34,20,4.0,NP,1681190796
342,panaba,21.2833,-88.2667,72.23,87,80,5.61,MX,1681190199
343,toccoa,34.5773,-83.3324,47.77,74,0,0.0,US,1681190541
344,ekhabi,53.5102,142.9671,33.1,47,4,5.77,RU,1681190797
345,pervomayskiy,53.2485,40.2871,48.2,51,6,3.98,RU,1681190797
346,aksu,41.1231,80.2644,65.01,18,91,4.85,CN,1681190653
347,nago,26.5881,127.9761,77.43,63,17,2.24,JP,1681190797
348,yugo-kamskiy,57.7053,55.5894,35.62,51,29,5.01,RU,1681190797
349,krasnovka,48.8177,40.0923,50.02,53,100,15.08,RU,1681190798
350,oistins,13.0667,-59.5333,78.89,69,40,18.41,BB,1681190798
351,visby,57.6409,18.296,41.83,87,0,14.97,SE,1681190798
352,luderitz,-26.6481,15.1594,59.36,42,35,7.0,NA,1681190798
353,rudiskes,54.5167,24.8333,48.02,83,46,5.39,LT,1681190798
354,biak,-0.9131,122.8766,83.7,72,26,2.21,ID,1681190799
355,haapiti,-17.5667,-149.8667,82.13,75,98,7.85,PF,1681190799
356,bahadurgarh,28.6833,76.9167,87.91,11,61,6.87,IN,1681190799
357,kichera,55.9375,110.0997,20.46,70,14,6.35,RU,1681190799
358,musoma,-1.5,33.8,69.3,79,99,6.2,TZ,1681190799
359,rivne,50.6231,26.2274,42.31,86,51,5.84,UA,1681190800
360,half moon bay,37.4636,-122.4286,57.9,90,100,9.22,US,1681190513
361,ust-kulom,61.6864,53.6902,33.51,91,100,10.31,RU,1681190800
362,lakes entrance,-37.8811,147.981,64.17,70,85,6.17,AU,1681190800
363,nara,34.6851,135.8049,75.49,30,4,7.49,JP,1681190800
364,bacolod,10.6667,122.95,79.07,66,100,4.18,PH,1681190692
365,alofi,-19.0595,-169.9187,78.69,78,2,8.05,NU,1681190801
366,san policarpo,12.1791,125.5072,74.89,92,100,14.27,PH,1681190801
367,magadan,59.5667,150.8,29.19,52,83,9.89,RU,1681190801
368,serebryansk,49.6925,83.2892,35.35,96,95,4.81,KZ,1681190801
369,langham,52.3668,-106.9679,39.04,83,99,6.85,CA,1681190802
370,carbonia,39.1672,8.5222,44.01,86,32,2.24,IT,1681190802
371,havre-saint-pierre,50.2334,-63.5986,34.16,86,100,6.91,CA,1681190802
372,allapalli,19.4167,80.0667,104.36,18,1,1.39,IN,1681190802
373,grand falls,47.0461,-67.7418,44.44,96,37,6.73,CA,1681190802
374,luwuk,-0.9516,122.7875,85.5,75,33,0.31,ID,1681190802
375,la ronge,55.1001,-105.2842,41.25,42,75,5.75,CA,1681190803
376,bull savanna,17.8868,-77.5902,72.57,82,4,2.57,JM,1681190803
377,grand gaube,-20.0064,57.6608,80.38,78,100,1.01,MU,1681190803
378,rundu,-17.9333,19.7667,62.2,85,99,4.5,NA,1681190803
379,moranbah,-22.0016,148.0466,87.85,18,1,1.05,AU,1681190804
380,kapoeta,4.7717,33.5903,82.71,42,79,14.47,SS,1681190717
381,hoquiam,46.9809,-123.8893,45.0,90,100,5.75,US,1681190804
382,ostersund,63.1792,14.6357,35.62,80,0,14.97,SE,1681190804
383,ola,59.5833,151.2833,27.97,56,100,18.3,RU,1681190804
384,buncrana,55.1333,-7.45,40.77,76,14,10.87,IE,1681190805
385,nyazepetrovsk,56.0531,59.6028,33.48,44,28,7.31,RU,1681190805
386,omboue,-1.5746,9.2618,77.74,88,100,2.53,GA,1681190805
387,forio,40.7342,13.8646,53.33,68,1,4.0,IT,1681190805
388,college,64.8569,-147.8028,11.59,54,75,0.0,US,1681190805
389,vieux-habitants,16.0589,-61.7659,71.17,80,1,10.33,GP,1681190805
390,narsaq,60.9167,-46.05,44.82,64,98,9.08,GL,1681190805
391,cururupu,-1.8283,-44.8683,73.18,98,91,1.95,BR,1681190806
392,bodden town,19.2833,-81.25,79.93,83,6,7.18,KY,1681190806
393,camopi,3.1655,-52.3158,71.13,100,79,2.21,GF,1681190806
394,kutum,14.2,24.6667,76.42,15,93,2.64,SD,1681190806
395,coahuayana,18.7333,-103.6833,72.43,78,85,2.68,MX,1681190806
396,bara,10.3744,10.7288,82.56,21,100,0.6,NG,1681190807
397,pitimbu,-7.4706,-34.8086,75.79,77,100,8.93,BR,1681190807
398,vermilion,40.1667,-87.7506,57.56,43,0,0.0,US,1681190600
399,menongue,-14.6585,17.691,61.39,89,100,2.57,AO,1681190807
400,touros,-5.1989,-35.4608,76.82,84,88,9.15,BR,1681190807
401,batagay-alyta,67.8006,130.4114,4.78,81,79,3.44,RU,1681190807
402,nokaneng,-19.6667,22.2667,64.31,81,22,2.37,BW,1681190808
403,tiznit,29.5833,-9.5,67.96,15,14,5.82,MA,1681190808
404,dauriya,49.9333,116.8667,26.67,61,100,28.79,RU,1681190808
405,marsh harbour,26.5412,-77.0636,72.68,74,100,29.89,BS,1681190808
406,zarubino,42.63,131.0922,47.53,77,85,7.4,RU,1681190808
407,chifeng,42.2683,118.9636,43.07,9,0,29.77,CN,1681190808
408,bida,9.0833,6.0167,81.18,71,46,3.56,NG,1681190808
409,gao,16.6362,1.637,78.62,16,58,12.1,ML,1681190556
410,lohardaga,23.4333,84.6833,91.54,9,1,9.69,IN,1681190809
411,ratnagiri,16.9833,73.3,91.04,46,0,6.91,IN,1681190809
412,san borja,-14.8167,-66.85,71.49,92,44,3.06,BO,1681190809
413,tieli,46.95,128.05,46.51,48,98,9.08,CN,1681190809
414,opuwo,-18.0607,13.84,65.17,46,15,2.59,NA,1681190809
415,ciudad bolivar,8.1222,-63.5497,80.37,66,94,12.97,VE,1681190809
416,maceio,-9.6658,-35.7353,74.64,94,20,3.44,BR,1681190623
417,catacamas,14.8,-85.9,70.14,87,59,2.64,HN,1681190618
418,formosa,-26.1775,-58.1781,74.97,81,0,5.75,AR,1681190810
419,da nang,16.0678,108.2208,85.98,70,40,9.22,VN,1681190810
420,kulhudhuffushi,6.6221,73.07,83.97,73,59,13.94,MV,1681190810
421,sal rei,16.1833,-22.9167,70.81,66,61,12.12,CV,1681190810
422,verkh-usugli,52.7,115.1667,27.66,52,100,15.48,RU,1681190811
423,hay river,60.8156,-115.7999,33.78,93,100,9.22,CA,1681190811
424,saint-francois,46.4154,3.9054,49.44,87,100,4.61,FR,1681190811
425,taree,-31.9,152.4667,72.21,40,0,7.02,AU,1681190811
426,adrar,20.5022,-10.0711,74.8,35,65,9.17,MR,1681190811
427,urusha,54.05,122.9,36.34,66,98,7.76,RU,1681190811
428,groningen,53.25,6.75,46.47,88,100,10.36,NL,1681190699
429,yarmouth,41.7057,-70.2286,46.45,81,0,9.22,US,1681190212
430,goure,13.9835,10.2704,77.4,18,58,10.22,NE,1681190530
431,codrington,-38.2667,141.9667,66.2,51,100,7.61,AU,1681190812
432,lazaro cardenas,17.9583,-102.2,77.45,75,46,5.46,MX,1681190812
433,esperance,-33.8667,121.9,68.05,62,69,20.58,AU,1681190812
434,fairbanks,64.8378,-147.7164,11.61,56,40,0.0,US,1681190753
435,ternate,0.8,127.4,85.3,69,48,6.6,ID,1681190813
436,saint-georges,12.0564,-61.7485,78.48,83,20,23.02,GD,1681190813
437,tromso,69.6496,18.957,31.37,93,0,2.3,NO,1681190615
438,poplar bluff,36.757,-90.3929,56.34,78,0,1.01,US,1681190813
439,vila,42.0304,-8.1588,43.68,99,62,2.51,PT,1681190813
440,salalah,17.0151,54.0924,86.09,66,23,8.05,OM,1681190814
441,shenkursk,62.1091,42.896,32.58,94,43,5.03,RU,1681190814
442,ribeira do pombal,-10.8344,-38.5358,69.4,96,39,2.77,BR,1681190766
443,hualmay,-11.0964,-77.6139,75.31,81,72,7.7,PE,1681190814
444,hofn,64.2539,-15.2082,36.97,96,100,6.35,IS,1681190814
445,searcy,35.2506,-91.7363,56.14,83,0,0.0,US,1681190815
446,kloulklubed,7.0419,134.2556,84.7,78,91,14.52,PW,1681190815
447,mehamn,71.0357,27.8492,37.35,93,75,13.8,NO,1681190815
448,san carlos de bariloche,-41.1456,-71.3082,47.95,93,100,6.91,AR,1681190815
449,mildura,-34.2,142.15,68.07,49,100,6.42,AU,1681190815
450,tocopilla,-22.092,-70.1979,69.98,77,11,2.59,CL,1681190815
451,veraval,20.9,70.3667,86.65,40,49,12.48,IN,1681190816
452,kendari,-3.945,122.4989,86.95,63,85,6.69,ID,1681190816
453,san luis,-33.295,-66.3356,68.29,59,100,10.36,AR,1681190816
454,kiama,-34.6833,150.8667,72.37,54,12,16.78,AU,1681190816
455,ouanaminthe,19.55,-71.7333,73.45,90,97,3.27,HT,1681190816
456,alvorada,-12.48,-49.1247,72.39,94,42,1.74,BR,1681190816
457,amursk,50.2261,136.8994,48.74,61,93,11.48,RU,1681190817
458,pandan,14.0453,124.1694,77.2,89,100,19.51,PH,1681190817
459,weston,26.1004,-80.3998,73.99,78,100,13.8,US,1681190817
460,lulea,65.5842,22.1547,26.67,93,40,3.44,SE,1681190817
461,wejherowo,54.6057,18.2356,49.37,83,95,9.71,PL,1681190817
462,volodarskiy,46.4013,48.5409,60.75,43,90,16.55,RU,1681190818
463,gandhinagar,23.2167,72.6833,91.38,35,94,4.61,IN,1681190818
464,sinegorye,62.0788,150.477,12.31,80,100,10.65,RU,1681190818
465,elko,41.0002,-115.5012,59.02,52,3,1.01,US,1681190818
466,egvekinot,66.3167,-179.1667,-4.94,85,7,3.18,RU,1681190818
467,altar,30.7,-111.8167,73.06,23,0,3.47,MX,1681190818
468,clyde river,70.4692,-68.5914,-9.17,70,0,10.36,CA,1681190818
469,kalcheva,45.7374,28.8141,49.39,76,100,19.48,UA,1681190819
470,turayf,31.6725,38.6637,59.25,82,40,6.91,SA,1681190819
471,katherine,-14.4667,132.2667,88.12,58,75,11.5,AU,1681190819
472,srednekolymsk,67.45,153.6833,9.54,78,91,9.98,RU,1681190819
473,hambantota,6.1241,81.1185,88.14,74,20,10.36,LK,1681190819
474,tezu,27.9167,96.1667,92.05,22,3,4.99,IN,1681190819
475,boguchany,58.3814,97.4531,40.08,77,100,14.36,RU,1681190819
476,kortkeros,61.8106,51.5806,37.4,92,100,8.68,RU,1681190820
477,sao joao da barra,-21.6403,-41.0511,70.54,80,11,5.32,BR,1681190565
478,tambovka,50.0969,128.0489,40.3,48,100,6.02,RU,1681190820
479,mitsamiouli,-11.3847,43.2844,82.33,75,9,7.02,KM,1681190820
480,kailua,21.4022,-157.7394,76.98,81,72,5.01,US,1681190820
481,sangar,63.9242,127.4739,22.86,82,100,4.14,RU,1681190820
482,norman wells,65.282,-126.8329,24.84,63,75,13.8,CA,1681190821
483,iglesias,39.3114,8.535,42.78,86,33,0.72,IT,1681190821
484,poum,-20.2333,164.0167,81.3,70,2,3.47,NC,1681190821
485,bud,39.447,-86.1758,55.94,71,73,2.86,US,1681190821
486,khandyga,62.6667,135.6,19.56,71,94,7.0,RU,1681190821
487,sambava,-14.2667,50.1667,76.53,86,20,4.25,MG,1681190821
488,rawson,-43.3002,-65.1023,56.53,59,100,12.86,AR,1681190822
489,serenje,-13.2325,30.2352,62.71,94,69,1.77,ZM,1681190822
490,buritama,-21.0661,-50.1472,68.54,82,85,5.37,BR,1681190822
491,antofagasta,-23.65,-70.4,65.48,83,20,5.28,CL,1681190823
492,nalut,30.3333,10.85,58.28,32,0,6.49,LY,1681190823
493,gornyy,55.1153,83.9059,27.45,55,76,18.88,RU,1681190823
494,isangel,-19.55,169.2667,84.43,70,99,4.9,VU,1681190567
495,tirumullaivasal,11.2333,79.8333,88.5,54,63,8.12,IN,1681190824
496,nipawin,53.3668,-104.0009,39.24,65,100,10.36,CA,1681190824
497,stepnyak,52.8339,70.7803,34.27,42,68,9.73,KZ,1681190825
498,fortuna,40.5982,-124.1573,50.94,95,100,1.99,US,1681190547
499,meresti,46.2333,25.45,39.6,80,100,3.51,RO,1681190825
500,maldonado,-34.6667,-54.9167,65.14,94,41,6.33,UY,1681190825
501,dafeng,23.4517,108.5881,72.81,96,100,3.24,CN,1681190826
502,rio grande,-32.035,-52.0986,71.02,88,91,4.7,BR,1681190826
503,palmas,-10.2128,-48.3603,73.27,94,75,4.61,BR,1681190826
504,atar,20.5169,-13.0499,78.55,34,37,11.92,MR,1681190827
505,gisborne,-38.6533,178.0042,68.32,62,18,8.43,NZ,1681190827
506,dhankuta,26.9833,87.3333,81.27,14,0,7.09,NP,1681190827
507,chervone,49.9564,28.8645,44.1,81,83,8.01,UA,1681190827
508,wattegama,6.7989,81.4808,90.05,45,84,7.63,LK,1681190827
509,yenagoa,4.9247,6.2642,76.53,92,99,4.54,NG,1681190828
510,xichang,27.8964,102.2634,79.0,27,5,4.61,CN,1681190828
511,balad,34.0164,44.1453,80.15,19,88,13.31,IQ,1681190828
512,lamu,-2.2717,40.902,82.62,73,27,5.91,KE,1681190828
513,atikokan,48.7555,-91.6216,40.57,91,100,10.27,CA,1681190829
514,benghazi,32.1167,20.0667,58.01,69,16,24.99,LY,1681190829
515,tabas,33.5959,56.9244,80.46,14,4,3.38,IR,1681190829
516,awbari,26.5921,12.7805,54.81,26,49,2.8,LY,1681190829
517,stornoway,58.2093,-6.3865,38.93,91,40,10.36,GB,1681190829
518,lujiang,31.2581,117.2817,79.63,53,99,12.24,CN,1681190829
519,arlit,18.7369,7.3853,78.26,20,61,11.05,NE,1681190830
520,morden,49.1919,-98.1014,43.23,70,100,11.5,CA,1681190830
521,singaparna,-7.3515,108.111,85.86,59,62,4.41,ID,1681190830
522,harper,4.375,-7.7169,79.23,83,100,4.59,LR,1681190830
523,cabreuva,-23.3075,-47.1328,62.87,94,3,6.42,BR,1681190830
524,acapulco,16.8634,-99.8901,80.42,78,0,4.61,MX,1681190541
525,fujin,47.26,132.0322,55.06,63,99,15.97,CN,1681190831
526,jalu,29.0331,21.5482,54.12,71,0,8.79,LY,1681190831
527,chumikan,54.7183,135.315,25.43,92,100,15.88,RU,1681190831
528,bhadrachalam,17.6667,80.8833,101.32,24,6,2.15,IN,1681190831
529,tukrah,32.5341,20.5791,55.89,75,52,21.97,LY,1681190832
530,tombouctou,20.0,-3.0,75.58,14,100,13.22,ML,1681190832
531,lashio,22.9333,97.75,95.61,15,0,3.96,MM,1681190832
532,tilichiki,60.4667,166.1,10.38,92,100,12.93,RU,1681190832
